{"type": "FeatureCollection", "features": [{"type": "Feature", "geometry": {"type": "Point", "coordinates": [-2.366299, -7.7199]}, "properties": {"name": "Africa"}}, {"type": "Feature", "geometry": {"type": "Point", "coordinates": [-2.366299, -89.712775]}, "properties": {"name": "Antarctica"}}, {"type": "Feature", "geometry": {"type": "Point", "coordinates": [48.341802, -16.197302]}, "properties": {"name": "Somalia"}}, {"type": "Feature", "geometry": {"type": "Point", "coordinates": [76.867856, 13.821353]}, "properties": {"name": "India"}}, {"type": "Feature", "geometry": {"type": "Point", "coordinates": [125.920861, -31.800144]}, "properties": {"name": "Australia"}}, {"type": "Feature", "geometry": {"type": "Point", "coordinates": [55.737603, 50.602447]}, "properties": {"name": "Eurasia"}}, {"type": "Feature", "geometry": {"type": "Point", "coordinates": [-88.301409, 56.63195]}, "properties": {"name": "North America"}}, {"type": "Feature", "geometry": {"type": "Point", "coordinates": [-41.223848, -21.795214]}, "properties": {"name": "South America"}}, {"type": "Feature", "geometry": {"type": "Point", "coordinates": [-92.835249, -19.172525]}, "properties": {"name": "Nazca"}}, {"type": "Feature", "geometry": {"type": "Point", "coordinates": [-160.478243, 2.810906]}, "properties": {"name": "Pacific"}}, {"type": "Feature", "geometry": {"type": "Point", "coordinates": [49.64255, 25.32855]}, "properties": {"name": "Arabia"}}, {"type": "Feature", "geometry": {"type": "Point", "coordinates": [111.615998, 5.372401]}, "properties": {"name": "Sunda"}}, {"type": "Feature", "geometry": {"type": "Point", "coordinates": [126.616009, -8.913455]}, "properties": {"name": "Timor"}}, {"type": "Feature", "geometry": {"type": "Point", "coordinates": [-178.777932, -32.594623]}, "properties": {"name": "Kermadec"}}, {"type": "Feature", "geometry": {"type": "Point", "coordinates": [-175.384127, -21.851627]}, "properties": {"name": "Tonga"}}, {"type": "Feature", "geometry": {"type": "Point", "coordinates": [-175.745603, -16.870319]}, "properties": {"name": "Niuafo'ou"}}, {"type": "Feature", "geometry": {"type": "Point", "coordinates": [146.252828, -7.1437]}, "properties": {"name": "Woodlark"}}, {"type": "Feature", "geometry": {"type": "Point", "coordinates": [137.882173, -3.358622]}, "properties": {"name": "Maoke"}}, {"type": "Feature", "geometry": {"type": "Point", "coordinates": [148.836501, -5.103675]}, "properties": {"name": "South Bismarck"}}, {"type": "Feature", "geometry": {"type": "Point", "coordinates": [152.826599, -7.147223]}, "properties": {"name": "Solomon Sea"}}, {"type": "Feature", "geometry": {"type": "Point", "coordinates": [146.05987, -1.908495]}, "properties": {"name": "North Bismarck"}}, {"type": "Feature", "geometry": {"type": "Point", "coordinates": [170.136498, -18.294352]}, "properties": {"name": "New Hebrides"}}, {"type": "Feature", "geometry": {"type": "Point", "coordinates": [-74.160905, 16.198079]}, "properties": {"name": "Caribbean"}}, {"type": "Feature", "geometry": {"type": "Point", "coordinates": [-94.261831, 7.922417]}, "properties": {"name": "Cocos"}}, {"type": "Feature", "geometry": {"type": "Point", "coordinates": [149.596744, 50.607323]}, "properties": {"name": "Okhotsk"}}, {"type": "Feature", "geometry": {"type": "Point", "coordinates": [-127.629952, 45.569942]}, "properties": {"name": "Juan de Fuca"}}, {"type": "Feature", "geometry": {"type": "Point", "coordinates": [-69.546213, -17.156443]}, "properties": {"name": "Altiplano"}}, {"type": "Feature", "geometry": {"type": "Point", "coordinates": [-75.566411, 5.463342]}, "properties": {"name": "North Andes"}}, {"type": "Feature", "geometry": {"type": "Point", "coordinates": [128.224501, 26.807388]}, "properties": {"name": "Okinawa"}}, {"type": "Feature", "geometry": {"type": "Point", "coordinates": [132.065503, 17.52538]}, "properties": {"name": "Philippine Sea"}}, {"type": "Feature", "geometry": {"type": "Point", "coordinates": [125.428865, 47.477669]}, "properties": {"name": "Amur"}}, {"type": "Feature", "geometry": {"type": "Point", "coordinates": [140.892503, 3.342775]}, "properties": {"name": "Caroline"}}, {"type": "Feature", "geometry": {"type": "Point", "coordinates": [146.172209, 17.797981]}, "properties": {"name": "Mariana"}}, {"type": "Feature", "geometry": {"type": "Point", "coordinates": [-177.772608, -14.99928]}, "properties": {"name": "Futuna"}}, {"type": "Feature", "geometry": {"type": "Point", "coordinates": [-49.943817, -56.983418]}, "properties": {"name": "Scotia"}}, {"type": "Feature", "geometry": {"type": "Point", "coordinates": [-59.134939, -61.875719]}, "properties": {"name": "Shetland"}}, {"type": "Feature", "geometry": {"type": "Point", "coordinates": [25.207134, 37.034013]}, "properties": {"name": "Aegean Sea"}}, {"type": "Feature", "geometry": {"type": "Point", "coordinates": [33.364831, 38.473598]}, "properties": {"name": "Anatolia"}}, {"type": "Feature", "geometry": {"type": "Point", "coordinates": [116.113585, 26.868158]}, "properties": {"name": "Yangtze"}}, {"type": "Feature", "geometry": {"type": "Point", "coordinates": [93.036814, 8.578819]}, "properties": {"name": "Burma"}}, {"type": "Feature", "geometry": {"type": "Point", "coordinates": [-107.404627, 20.10142]}, "properties": {"name": "Rivera"}}, {"type": "Feature", "geometry": {"type": "Point", "coordinates": [131.403479, -1.432157]}, "properties": {"name": "Birds Head"}}, {"type": "Feature", "geometry": {"type": "Point", "coordinates": [123.471427, -1.223977]}, "properties": {"name": "Molucca Sea"}}, {"type": "Feature", "geometry": {"type": "Point", "coordinates": [125.829551, -5.963426]}, "properties": {"name": "Banda Sea"}}, {"type": "Feature", "geometry": {"type": "Point", "coordinates": [150.503033, -3.506882]}, "properties": {"name": "Manus"}}, {"type": "Feature", "geometry": {"type": "Point", "coordinates": [174.721516, -19.450055]}, "properties": {"name": "Conway Reef"}}, {"type": "Feature", "geometry": {"type": "Point", "coordinates": [175.536649, -15.061434]}, "properties": {"name": "Balmoral Reef"}}, {"type": "Feature", "geometry": {"type": "Point", "coordinates": [-113.914659, -24.541152]}, "properties": {"name": "Easter"}}, {"type": "Feature", "geometry": {"type": "Point", "coordinates": [-111.003884, -33.339046]}, "properties": {"name": "Juan Fernandez"}}, {"type": "Feature", "geometry": {"type": "Point", "coordinates": [-101.68528, 1.835824]}, "properties": {"name": "Galapagos"}}, {"type": "Feature", "geometry": {"type": "Point", "coordinates": [-27.285014, -57.80957]}, "properties": {"name": "Sandwich"}}, {"type": "Feature", "geometry": {"type": "Point", "coordinates": [-81.725317, 8.460112]}, "properties": {"name": "Panama"}}]}